{
  "features": [
    {
      "Census year": 2019,
      "Block ID": 203,
      "Property ID": 103123,
      "Base property ID": 103123,
      "Street address": "258 Elgin Street CARLTON 3053",
      "CLUE small area": "Carlton",
      "Trading name": "Cafe Sua Da",
      "Industry (ANZSIC4) code": 4511,
      "Industry (ANZSIC4) description": "Cafes and Restaurants",
      "Seating type": "Seats - Indoor",
      "Number of seats": 45,
      "longitude": 144.96553,
      "latitude": -37.79671
    },
    {
      "Census year": 2019,
      "Block ID": 203,
      "Property ID": 103123,
      "Base property ID": 103123,
      "Street address": "258 Elgin Street CARLTON 3053",
      "CLUE small area": "Carlton",
      "Trading name": "Cafe Sua Da",
      "Industry (ANZSIC4) code": 4511,
      "Industry (ANZSIC4) description": "Cafes and Restaurants",
      "Seating type": "Seats - Outdoor",
      "Number of seats": 6,
      "longitude": 144.96553,
      "latitude": -37.79671
    },
    {
      "Census year": 2019,
      "Block ID": 203,
      "Property ID": 109358,
      "Base property ID": 109358,
      "Street address": "832-834 Swanston Street CARLTON 3053",
      "CLUE small area": "Carlton",
      "Trading name": "Brother Bull",
      "Industry (ANZSIC4) code": 4511,
      "Industry (ANZSIC4) description": "Cafes and Restaurants",
      "Seating type": "Seats - Indoor",
      "Number of seats": 42,
      "longitude": 144.9649,
      "latitude": -37.79668
    },
    {
      "Census year": 2019,
      "Block ID": 204,
      "Property ID": 101613,
      "Base property ID": 101613,
      "Street address": "377-391 Cardigan Street CARLTON 3053",
      "CLUE small area": "Carlton",
      "Trading name": "Clyde Hotel",
      "Industry (ANZSIC4) code": 4520,
      "Industry (ANZSIC4) description": "Pubs, Taverns and Bars",
      "Seating type": "Seats - Indoor",
      "Number of seats": 70,
      "longitude": 144.96575,
      "latitude": -37.79726
    },
    {
      "Census year": 2019,
      "Block ID": 204,
      "Property ID": 101613,
      "Base property ID": 101613,
      "Street address": "377-391 Cardigan Street CARLTON 3053",
      "CLUE small area": "Carlton",
      "Trading name": "Clyde Hotel",
      "Industry (ANZSIC4) code": 4520,
      "Industry (ANZSIC4) description": "Pubs, Taverns and Bars",
      "Seating type": "Seats - Outdoor",
      "Number of seats": 50,
      "longitude": 144.96575,
      "latitude": -37.79726
    },
    {
      "Census year": 2019,
      "Block ID": 204,
      "Property ID": 109359,
      "Base property ID": 109359,
      "Street address": "768-804 Swanston Street CARLTON 3053",
      "CLUE small area": "Carlton",
      "Trading name": "The Longing Flavour",
      "Industry (ANZSIC4) code": 4511,
      "Industry (ANZSIC4) description": "Cafes and Restaurants",
      "Seating type": "Seats - Indoor",
      "Number of seats": 50,
      "longitude": 144.96517,
      "latitude": -37.79783
    },
    {
      "Census year": 2019,
      "Block ID": 204,
      "Property ID": 109359,
      "Base property ID": 109359,
      "Street address": "768-804 Swanston Street CARLTON 3053",
      "CLUE small area": "Carlton",
      "Trading name": "Masters Of Burgerology",
      "Industry (ANZSIC4) code": 4511,
      "Industry (ANZSIC4) description": "Cafes and Restaurants",
      "Seating type": "Seats - Indoor",
      "Number of seats": 50,
      "longitude": 144.96517,
      "latitude": -37.79783
    },
    {
      "Census year": 2019,
      "Block ID": 204,
      "Property ID": 109359,
      "Base property ID": 109359,
      "Street address": "768-804 Swanston Street CARLTON 3053",
      "CLUE small area": "Carlton",
      "Trading name": "Masters Of Burgerology",
      "Industry (ANZSIC4) code": 4511,
      "Industry (ANZSIC4) description": "Cafes and Restaurants",
      "Seating type": "Seats - Outdoor",
      "Number of seats": 16,
      "longitude": 144.96517,
      "latitude": -37.79783
    },
    {
      "Census year": 2019,
      "Block ID": 205,
      "Property ID": 512713,
      "Base property ID": 512713,
      "Street address": "249-263 Faraday Street CARLTON 3053",
      "CLUE small area": "Carlton",
      "Trading name": "Wild Timor Coffee Carlton Pty Ltd",
      "Industry (ANZSIC4) code": 4511,
      "Industry (ANZSIC4) description": "Cafes and Restaurants",
      "Seating type": "Seats - Indoor",
      "Number of seats": 17,
      "longitude": 144.96526,
      "latitude": -37.79872
    },
    {
      "Census year": 2019,
      "Block ID": 205,
      "Property ID": 512713,
      "Base property ID": 512713,
      "Street address": "249-263 Faraday Street CARLTON 3053",
      "CLUE small area": "Carlton",
      "Trading name": "Wild Timor Coffee Carlton Pty Ltd",
      "Industry (ANZSIC4) code": 4511,
      "Industry (ANZSIC4) description": "Cafes and Restaurants",
      "Seating type": "Seats - Outdoor",
      "Number of seats": 24,
      "longitude": 144.96526,
      "latitude": -37.79872
    },
    {
      "Census year": 2019,
      "Block ID": 205,
      "Property ID": 573289,
      "Base property ID": 573289,
      "Street address": "714-736 Swanston Street CARLTON 3053",
      "CLUE small area": "Carlton",
      "Trading name": "Toothpicks Cafe",
      "Industry (ANZSIC4) code": 4511,
      "Industry (ANZSIC4) description": "Cafes and Restaurants",
      "Seating type": "Seats - Indoor",
      "Number of seats": 60,
      "longitude": 144.96489,
      "latitude": -37.79947
    },
    {
      "Census year": 2019,
      "Block ID": 205,
      "Property ID": 573289,
      "Base property ID": 573289,
      "Street address": "714-736 Swanston Street CARLTON 3053",
      "CLUE small area": "Carlton",
      "Trading name": "Toothpicks Cafe",
      "Industry (ANZSIC4) code": 4511,
      "Industry (ANZSIC4) description": "Cafes and Restaurants",
      "Seating type": "Seats - Outdoor",
      "Number of seats": 36,
      "longitude": 144.96489,
      "latitude": -37.79947
    },
    {
      "Census year": 2019,
      "Block ID": 205,
      "Property ID": 573290,
      "Base property ID": 573290,
      "Street address": "740-750 Swanston Street CARLTON 3053",
      "CLUE small area": "Carlton",
      "Trading name": "Claypot Kingdom",
      "Industry (ANZSIC4) code": 4511,
      "Industry (ANZSIC4) description": "Cafes and Restaurants",
      "Seating type": "Seats - Indoor",
      "Number of seats": 40,
      "longitude": 144.96476,
      "latitude": -37.799
    },
    {
      "Census year": 2019,
      "Block ID": 205,
      "Property ID": 573290,
      "Base property ID": 573290,
      "Street address": "740-750 Swanston Street CARLTON 3053",
      "CLUE small area": "Carlton",
      "Trading name": "E Dumpling",
      "Industry (ANZSIC4) code": 4511,
      "Industry (ANZSIC4) description": "Cafes and Restaurants",
      "Seating type": "Seats - Indoor",
      "Number of seats": 32,
      "longitude": 144.96476,
      "latitude": -37.799
    },
    {
      "Census year": 2019,
      "Block ID": 205,
      "Property ID": 573290,
      "Base property ID": 573290,
      "Street address": "740-750 Swanston Street CARLTON 3053",
      "CLUE small area": "Carlton",
      "Trading name": "E Dumpling",
      "Industry (ANZSIC4) code": 4511,
      "Industry (ANZSIC4) description": "Cafes and Restaurants",
      "Seating type": "Seats - Outdoor",
      "Number of seats": 8,
      "longitude": 144.96476,
      "latitude": -37.799
    },
    {
      "Census year": 2019,
      "Block ID": 206,
      "Property ID": 103691,
      "Base property ID": 103691,
      "Street address": "221-229 Faraday Street CARLTON 3053",
      "CLUE small area": "Carlton",
      "Trading name": "Thresherman's Bakehouse",
      "Industry (ANZSIC4) code": 4511,
      "Industry (ANZSIC4) description": "Cafes and Restaurants",
      "Seating type": "Seats - Indoor",
      "Number of seats": 70,
      "longitude": 144.96673,
      "latitude": -37.79886
    },
    {
      "Census year": 2019,
      "Block ID": 206,
      "Property ID": 103691,
      "Base property ID": 103691,
      "Street address": "221-229 Faraday Street CARLTON 3053",
      "CLUE small area": "Carlton",
      "Trading name": "Thresherman's Bakehouse",
      "Industry (ANZSIC4) code": 4511,
      "Industry (ANZSIC4) description": "Cafes and Restaurants",
      "Seating type": "Seats - Outdoor",
      "Number of seats": 50,
      "longitude": 144.96673,
      "latitude": -37.79886
    },
    {
      "Census year": 2019,
      "Block ID": 206,
      "Property ID": 103694,
      "Base property ID": 103694,
      "Street address": "235-237 Faraday Street CARLTON 3053",
      "CLUE small area": "Carlton",
      "Trading name": "New York Minute",
      "Industry (ANZSIC4) code": 4511,
      "Industry (ANZSIC4) description": "Cafes and Restaurants",
      "Seating type": "Seats - Indoor",
      "Number of seats": 33,
      "longitude": 144.9663,
      "latitude": -37.79881
    },
    {
      "Census year": 2019,
      "Block ID": 206,
      "Property ID": 103694,
      "Base property ID": 103694,
      "Street address": "235-237 Faraday Street CARLTON 3053",
      "CLUE small area": "Carlton",
      "Trading name": "New York Minute",
      "Industry (ANZSIC4) code": 4511,
      "Industry (ANZSIC4) description": "Cafes and Restaurants",
      "Seating type": "Seats - Outdoor",
      "Number of seats": 24,
      "longitude": 144.9663,
      "latitude": -37.79881
    },
    {
      "Census year": 2019,
      "Block ID": 206,
      "Property ID": 106113,
      "Base property ID": 106113,
      "Street address": "205-207 Lygon Street CARLTON 3053",
      "CLUE small area": "Carlton",
      "Trading name": "Dumpling ADA",
      "Industry (ANZSIC4) code": 4511,
      "Industry (ANZSIC4) description": "Cafes and Restaurants",
      "Seating type": "Seats - Indoor",
      "Number of seats": 35,
      "longitude": 144.96656,
      "latitude": -37.80046
    },
    {
      "Census year": 2019,
      "Block ID": 206,
      "Property ID": 106113,
      "Base property ID": 106113,
      "Street address": "205-207 Lygon Street CARLTON 3053",
      "CLUE small area": "Carlton",
      "Trading name": "Dumpling ADA",
      "Industry (ANZSIC4) code": 4511,
      "Industry (ANZSIC4) description": "Cafes and Restaurants",
      "Seating type": "Seats - Outdoor",
      "Number of seats": 16,
      "longitude": 144.96656,
      "latitude": -37.80046
    },
    {
      "Census year": 2019,
      "Block ID": 206,
      "Property ID": 106114,
      "Base property ID": 106114,
      "Street address": "209 Lygon Street CARLTON 3053",
      "CLUE small area": "Carlton",
      "Trading name": "Il Cantuccio Restaurant",
      "Industry (ANZSIC4) code": 4511,
      "Industry (ANZSIC4) description": "Cafes and Restaurants",
      "Seating type": "Seats - Indoor",
      "Number of seats": 100,
      "longitude": 144.9666,
      "latitude": -37.80042
    }
  ]
}
